[
  {
    "id": 2550230,
    "name": "San Francisco",
    "region": "California",
    "country": "United States of America",
    "lat": 37.78,
    "lon": -122.42,
    "url": "san-francisco-california-united-states-of-america"
  },
  {
    "id": 2548704,
    "name": "Little Osaka",
    "region": "California",
    "country": "United States of America",
    "lat": 37.79,
    "lon": -122.43,
    "url": "little-osaka-california-united-states-of-america"
  },
  {
    "id": 2549092,
    "name": "Mission District",
    "region": "California",
    "country": "United States of America",
    "lat": 37.76,
    "lon": -122.42,
    "url": "mission-district-california-united-states-of-america"
  },
  {
    "id": 2549863,
    "name": "Potrero District",
    "region": "California",
    "country": "United States of America",
    "lat": 37.76,
    "lon": -122.4,
    "url": "potrero-district-california-united-states-of-america"
  },
  {
    "id": 2551228,
    "name": "Western Addition",
    "region": "California",
    "country": "United States of America",
    "lat": 37.79,
    "lon": -122.45,
    "url": "western-addition-california-united-states-of-america"
  },
  {
    "id": 2549383,
    "name": "North Point Public Housing",
    "region": "California",
    "country": "United States of America",
    "lat": 37.81,
    "lon": -122.41,
    "url": "north-point-public-housing-california-united-states-of-america"
  },
  {
    "id": 2548895,
    "name": "Marina District",
    "region": "California",
    "country": "United States of America",
    "lat": 37.8,
    "lon": -122.44,
    "url": "marina-district-california-united-states-of-america"
  },
  {
    "id": 2549357,
    "name": "North Beach",
    "region": "California",
    "country": "United States of America",
    "lat": 37.81,
    "lon": -122.41,
    "url": "north-beach-california-united-states-of-america"
  },
  {
    "id": 2550050,
    "name": "Richmond District",
    "region": "California",
    "country": "United States of America",
    "lat": 37.78,
    "lon": -122.47,
    "url": "richmond-district-california-united-states-of-america"
  },
  {
    "id": 2546304,
    "name": "Bayview District",
    "region": "California",
    "country": "United States of America",
    "lat": 37.73,
    "lon": -122.39,
    "url": "bayview-district-california-united-states-of-america"
  }
]